{
  "generatedAt": "2026-06-24T18:06:28.500Z",
  "batchSize": 492,
  "previouslyPromotedCount": 13,
  "reviewedThisRun": 479,
  "promotedCount": 124,
  "heldCount": 355,
  "policy": "Only reviewed operational identity/location matches were promoted. Ambiguous and closed results remain held.",
  "promoted": [
    {
      "key": "data/Gillette_WY_Corridor_Discovery_V2_20.csv|3",
      "company": "W/W Mobile Testing",
      "prior": {
        "address": "US Highway 14 industrial corridor; exact address pending",
        "city": "Gillette",
        "state": "WY",
        "phone": "Needs direct confirmation",
        "website": "",
        "latitude": "44.291100",
        "longitude": "-105.502200"
      },
      "applied": {
        "address": "3716 Garman Rd B",
        "city": "Gillette",
        "state": "WY",
        "phone": "(307) 318-8156",
        "website": "https://www.facebook.com/profile.php?id=61576821893972#",
        "latitude": "44.3310901",
        "longitude": "-105.5209537"
      },
      "source": "https://maps.google.com/?cid=16101022548565168222"
    },
    {
      "key": "data/Gillette_WY_Corridor_Discovery_V2_20.csv|4",
      "company": "Butler Field Services",
      "prior": {
        "address": "US Highway 14 industrial corridor; exact address pending",
        "city": "Gillette",
        "state": "WY",
        "phone": "Needs direct confirmation",
        "website": "",
        "latitude": "44.291100",
        "longitude": "-105.502200"
      },
      "applied": {
        "address": "3312 Garman Rd",
        "city": "Gillette",
        "state": "WY",
        "phone": "Needs direct confirmation",
        "website": "",
        "latitude": "44.3270752",
        "longitude": "-105.5210524"
      },
      "source": "https://maps.google.com/?cid=2949898635507963691"
    },
    {
      "key": "data/Gillette_WY_Corridor_Discovery_V2_20.csv|5",
      "company": "ABM Well Service",
      "prior": {
        "address": "Hays Drive industrial corridor; exact address pending",
        "city": "Gillette",
        "state": "WY",
        "phone": "Needs direct confirmation",
        "website": "",
        "latitude": "44.291100",
        "longitude": "-105.502200"
      },
      "applied": {
        "address": "2906 Hackathorn Ln",
        "city": "Gillette",
        "state": "WY",
        "phone": "(307) 660-8170",
        "website": "https://www.abmwellservice.com/",
        "latitude": "44.3235872",
        "longitude": "-105.5264858"
      },
      "source": "https://maps.google.com/?cid=4154425558949835829"
    },
    {
      "key": "data/Gillette_WY_Corridor_Discovery_V2_20.csv|6",
      "company": "Pluggin Along",
      "prior": {
        "address": "US Highway 14 industrial corridor; exact address pending",
        "city": "Gillette",
        "state": "WY",
        "phone": "Needs direct confirmation",
        "website": "",
        "latitude": "44.291100",
        "longitude": "-105.502200"
      },
      "applied": {
        "address": "W 2nd St",
        "city": "Gillette",
        "state": "WY",
        "phone": "Needs direct confirmation",
        "website": "https://plugginalong.com/",
        "latitude": "44.319503",
        "longitude": "-105.530012"
      },
      "source": "https://maps.google.com/?cid=4384243692314364339"
    },
    {
      "key": "data/Gillette_WY_Corridor_Discovery_V2_20.csv|7",
      "company": "American Compressor Solutions",
      "prior": {
        "address": "Exact Gillette-area address pending",
        "city": "Gillette",
        "state": "WY",
        "phone": "Needs direct confirmation",
        "website": "",
        "latitude": "44.291100",
        "longitude": "-105.502200"
      },
      "applied": {
        "address": "1400 Ratcliff Dr",
        "city": "Gillette",
        "state": "WY",
        "phone": "(307) 685-8101",
        "website": "http://acswy.com/",
        "latitude": "44.3205617",
        "longitude": "-105.5226174"
      },
      "source": "https://maps.google.com/?cid=4427216143214883584"
    },
    {
      "key": "data/Gillette_WY_Corridor_Discovery_V2_20.csv|8",
      "company": "PS Services",
      "prior": {
        "address": "Means Street industrial corridor; exact address pending",
        "city": "Gillette",
        "state": "WY",
        "phone": "Needs direct confirmation",
        "website": "",
        "latitude": "44.291100",
        "longitude": "-105.502200"
      },
      "applied": {
        "address": "806 Ratcliff Dr",
        "city": "Gillette",
        "state": "WY",
        "phone": "(307) 696-8098",
        "website": "",
        "latitude": "44.3208547",
        "longitude": "-105.5182568"
      },
      "source": "https://maps.google.com/?cid=13447861952851706088"
    },
    {
      "key": "data/Gillette_WY_Corridor_Discovery_V2_20.csv|10",
      "company": "Black Water Environmental",
      "prior": {
        "address": "US Highway 14 industrial corridor; exact address pending",
        "city": "Gillette",
        "state": "WY",
        "phone": "Needs direct confirmation",
        "website": "",
        "latitude": "44.291100",
        "longitude": "-105.502200"
      },
      "applied": {
        "address": "3315 Garman Rd",
        "city": "Gillette",
        "state": "WY",
        "phone": "(307) 363-5900",
        "website": "https://www.blackwaterenviro.com/",
        "latitude": "44.3271555",
        "longitude": "-105.5223811"
      },
      "source": "https://maps.google.com/?cid=8971630317808618525"
    },
    {
      "key": "data/Gillette_WY_Corridor_Discovery_V2_20.csv|11",
      "company": "D. Eldridge Safety",
      "prior": {
        "address": "US Highway 14 industrial corridor; exact address pending",
        "city": "Gillette",
        "state": "WY",
        "phone": "Needs direct confirmation",
        "website": "",
        "latitude": "44.291100",
        "longitude": "-105.502200"
      },
      "applied": {
        "address": "1704 Ratcliff Dr",
        "city": "Gillette",
        "state": "WY",
        "phone": "(307) 680-0878",
        "website": "",
        "latitude": "44.32067290000001",
        "longitude": "-105.5265411"
      },
      "source": "https://maps.google.com/?cid=11424606488834153942"
    },
    {
      "key": "data/Gillette_WY_Corridor_Discovery_V2_20.csv|12",
      "company": "Tom's Hot Shot Service",
      "prior": {
        "address": "Hannum Road industrial corridor; exact address pending",
        "city": "Gillette",
        "state": "WY",
        "phone": "Needs direct confirmation",
        "website": "",
        "latitude": "44.291100",
        "longitude": "-105.502200"
      },
      "applied": {
        "address": "606 N Plains Dr",
        "city": "Gillette",
        "state": "WY",
        "phone": "(307) 686-1005",
        "website": "http://tomshotshotservice.com/",
        "latitude": "44.3297519",
        "longitude": "-105.511303"
      },
      "source": "https://maps.google.com/?cid=9990063507232787827"
    },
    {
      "key": "data/Gillette_WY_Corridor_Discovery_V2_20.csv|14",
      "company": "Toolpushers Supply Co",
      "prior": {
        "address": "South Highway 59 corridor; exact address pending",
        "city": "Gillette",
        "state": "WY",
        "phone": "Needs direct confirmation",
        "website": "",
        "latitude": "44.291100",
        "longitude": "-105.502200"
      },
      "applied": {
        "address": "3105 4-J Rd",
        "city": "Gillette",
        "state": "WY",
        "phone": "(307) 686-6110",
        "website": "",
        "latitude": "44.2659593",
        "longitude": "-105.5086708"
      },
      "source": "https://maps.google.com/?cid=11413475613567448391"
    },
    {
      "key": "data/Gillette_WY_Corridor_Discovery_V2_20.csv|16",
      "company": "Don-Nan Pump & Supply",
      "prior": {
        "address": "South Highway 59 corridor; exact address pending",
        "city": "Gillette",
        "state": "WY",
        "phone": "Needs direct confirmation",
        "website": "",
        "latitude": "44.291100",
        "longitude": "-105.502200"
      },
      "applied": {
        "address": "5544 S Winland Dr",
        "city": "Gillette",
        "state": "WY",
        "phone": "(307) 696-9163",
        "website": "http://www.don-nan.com/",
        "latitude": "44.2439007",
        "longitude": "-105.4763597"
      },
      "source": "https://maps.google.com/?cid=8706497259346326016"
    },
    {
      "key": "DOG_Continental_US_Oilfield_Service_Provider_Map_V2_20_Corridor_Expansion.csv|153",
      "company": "Bridger Photonics",
      "prior": {
        "address": "City-level headquarters; exact office verification recommended",
        "city": "Bozeman",
        "state": "MT",
        "phone": "Needs direct confirmation",
        "website": "https://www.bridgerphotonics.com/",
        "latitude": "45.677000",
        "longitude": "-111.042900"
      },
      "applied": {
        "address": "2310 University Way Bldg 4-1",
        "city": "Bozeman",
        "state": "MT",
        "phone": "(406) 585-2774",
        "website": "http://www.bridgerphotonics.com/",
        "latitude": "45.6556967",
        "longitude": "-111.0486129"
      },
      "source": "https://maps.google.com/?cid=1323127578845847117"
    },
    {
      "key": "DOG_Continental_US_Oilfield_Service_Provider_Map_V2_20_Corridor_Expansion.csv|164",
      "company": "Halliburton",
      "prior": {
        "address": "Williston Basin regional operations",
        "city": "Williston",
        "state": "ND",
        "phone": "Needs local yard confirmation",
        "website": "https://www.halliburton.com/",
        "latitude": "48.146970",
        "longitude": "-103.617970"
      },
      "applied": {
        "address": "826 48th Ave W",
        "city": "Williston",
        "state": "ND",
        "phone": "(701) 774-3963",
        "website": "http://www.halliburton.com/",
        "latitude": "48.1529533",
        "longitude": "-103.6900092"
      },
      "source": "https://maps.google.com/?cid=2452822825124163853"
    },
    {
      "key": "DOG_Continental_US_Oilfield_Service_Provider_Map_V2_20_Corridor_Expansion.csv|99",
      "company": "Norris Wireline Service LLC",
      "prior": {
        "address": "Regional service provider",
        "city": "Glasgow",
        "state": "KY",
        "phone": "270-646-6054",
        "website": "https://www.facebook.com/NorrisWirelineServiceLLC/ | Needs website verification",
        "latitude": "37.000300",
        "longitude": "-85.911900"
      },
      "applied": {
        "address": "264 S Frk Rd",
        "city": "Glasgow",
        "state": "KY",
        "phone": "(270) 651-8737",
        "website": "https://www.facebook.com/NorrisWirelineServiceLLC/ | Needs website verification",
        "latitude": "36.973673",
        "longitude": "-85.94458139999999"
      },
      "source": "https://maps.google.com/?cid=6500799701900106907"
    },
    {
      "key": "DOG_Continental_US_Oilfield_Service_Provider_Map_V2_20_Corridor_Expansion.csv|22",
      "company": "Rival Well Services, Inc.",
      "prior": {
        "address": "18812 Highway 65",
        "city": "Bakersfield",
        "state": "CA",
        "phone": "Needs direct confirmation",
        "website": "https://www.rivalwellservices.com/",
        "latitude": "35.373300",
        "longitude": "-119.018700"
      },
      "applied": {
        "address": "18812 CA-65",
        "city": "Bakersfield",
        "state": "CA",
        "phone": "(661) 392-1700",
        "website": "http://www.rivalwellservices.com/",
        "latitude": "35.470047",
        "longitude": "-119.0740352"
      },
      "source": "https://maps.google.com/?cid=5893991798103363167"
    },
    {
      "key": "DOG_Continental_US_Oilfield_Service_Provider_Map_V2_20_Corridor_Expansion.csv|158",
      "company": "NESET Consulting",
      "prior": {
        "address": "Williston Basin regional service provider",
        "city": "Tioga",
        "state": "ND",
        "phone": "Needs direct contact confirmation",
        "website": "https://nesetconsulting.com/",
        "latitude": "48.397200",
        "longitude": "-102.938000"
      },
      "applied": {
        "address": "6844 ND-40",
        "city": "Tioga",
        "state": "ND",
        "phone": "(701) 664-1492",
        "website": "http://www.nesetconsulting.com/",
        "latitude": "48.4077315",
        "longitude": "-102.9276872"
      },
      "source": "https://maps.google.com/?cid=16389521223480450340"
    },
    {
      "key": "DOG_Continental_US_Oilfield_Service_Provider_Map_V2_20_Corridor_Expansion.csv|163",
      "company": "GO Wireline",
      "prior": {
        "address": "Williston and Dickinson shops",
        "city": "Williston",
        "state": "ND",
        "phone": "Needs direct confirmation",
        "website": "https://www.linkedin.com/company/gowireline",
        "latitude": "48.146970",
        "longitude": "-103.617970"
      },
      "applied": {
        "address": "320 8th Ave E",
        "city": "Williston",
        "state": "ND",
        "phone": "(701) 572-0886",
        "website": "http://www.gowireline.com/",
        "latitude": "48.1476593",
        "longitude": "-103.6088638"
      },
      "source": "https://maps.google.com/?cid=18177027374768931663"
    },
    {
      "key": "DOG_Continental_US_Oilfield_Service_Provider_Map_V2_20_Corridor_Expansion.csv|168",
      "company": "Noble Casing",
      "prior": {
        "address": "Regional offices / verify closest yard",
        "city": "Williston",
        "state": "ND",
        "phone": "Needs direct confirmation",
        "website": "https://www.nobleoilfieldservices.com/",
        "latitude": "48.146970",
        "longitude": "-103.617970"
      },
      "applied": {
        "address": "5061 141t Ln NW",
        "city": "Williston",
        "state": "ND",
        "phone": "(701) 572-1018",
        "website": "http://www.nobleoilfieldservices.com/",
        "latitude": "48.1488763",
        "longitude": "-103.7507142"
      },
      "source": "https://maps.google.com/?cid=11941141211297045296"
    },
    {
      "key": "DOG_Continental_US_Oilfield_Service_Provider_Map_V2_20_Corridor_Expansion.csv|337",
      "company": "Fairfield Geotechnologies",
      "prior": {
        "address": "Houston area office / data library provider",
        "city": "Houston",
        "state": "TX",
        "phone": "Needs direct contact confirmation",
        "website": "https://fairfieldgeo.com/",
        "latitude": "29.760400",
        "longitude": "-95.369800"
      },
      "applied": {
        "address": "9811 Katy Fwy Ste 1200",
        "city": "Houston",
        "state": "TX",
        "phone": "(281) 275-7500",
        "website": "http://fairfieldgeo.com/",
        "latitude": "29.7826053",
        "longitude": "-95.53654759999999"
      },
      "source": "https://maps.google.com/?cid=13355830815133353786"
    },
    {
      "key": "DOG_Continental_US_Oilfield_Service_Provider_Map_V2_20_Corridor_Expansion.csv|413",
      "company": "Dawson Geophysical",
      "prior": {
        "address": "508 West Wall, Suite 800",
        "city": "Midland",
        "state": "TX",
        "phone": "Needs direct contact confirmation",
        "website": "https://www.dawson3d.com/",
        "latitude": "31.997300",
        "longitude": "-102.078100"
      },
      "applied": {
        "address": "508 W Wall St #800",
        "city": "Midland",
        "state": "TX",
        "phone": "(432) 684-3000",
        "website": "http://www.dawson3d.com/",
        "latitude": "31.9977205",
        "longitude": "-102.080327"
      },
      "source": "https://maps.google.com/?cid=3895615896990577891"
    },
    {
      "key": "DOG_Continental_US_Oilfield_Service_Provider_Map_V2_20_Corridor_Expansion.csv|489",
      "company": "Homax Oil Sales",
      "prior": {
        "address": "Casper / Douglas / Gillette / Rock Springs offices",
        "city": "Casper",
        "state": "WY",
        "phone": "Needs location-specific confirmation",
        "website": "https://homaxoil.com/",
        "latitude": "42.850100",
        "longitude": "-106.325200"
      },
      "applied": {
        "address": "605 S Poplar St",
        "city": "Casper",
        "state": "WY",
        "phone": "(307) 237-5800",
        "website": "http://www.homaxoil.com/",
        "latitude": "42.8438346",
        "longitude": "-106.33627"
      },
      "source": "https://maps.google.com/?cid=7860109279377855403"
    },
    {
      "key": "DOG_Continental_US_Oilfield_Service_Provider_Map_V2_20_Corridor_Expansion.csv|516",
      "company": "R.P. Oilfield Service",
      "prior": {
        "address": "78 Purple Sage Road",
        "city": "Rock Springs",
        "state": "WY",
        "phone": "Needs direct confirmation",
        "website": "https://www.rpoilfield.com/",
        "latitude": "41.572000",
        "longitude": "-109.238000"
      },
      "applied": {
        "address": "1981 Yellowstone Rd",
        "city": "Rock Springs",
        "state": "WY",
        "phone": "(307) 382-5630",
        "website": "http://www.rpoilfield.com/",
        "latitude": "41.6462184",
        "longitude": "-109.2567159"
      },
      "source": "https://maps.google.com/?cid=8534255517696201466"
    },
    {
      "key": "DOG_Continental_US_Oilfield_Service_Provider_Map_V2_20_Corridor_Expansion.csv|146",
      "company": "Cased Hole Well Services",
      "prior": {
        "address": "2934 Industrial Blvd",
        "city": "Laurel",
        "state": "MS",
        "phone": "601-425-2700",
        "website": "Needs company website verification",
        "latitude": "31.694100",
        "longitude": "-89.130600"
      },
      "applied": {
        "address": "3611 Industrial Blvd",
        "city": "Laurel",
        "state": "MS",
        "phone": "(601) 425-2700",
        "website": "http://www.casedholewellservices.com/",
        "latitude": "31.6603438",
        "longitude": "-89.1793842"
      },
      "source": "https://maps.google.com/?cid=16688400412602621252"
    },
    {
      "key": "DOG_Continental_US_Oilfield_Service_Provider_Map_V2_20_Corridor_Expansion.csv|517",
      "company": "Pronghorn Drilling, Inc.",
      "prior": {
        "address": "9 Timm Drive",
        "city": "Sheridan",
        "state": "WY",
        "phone": "307-673-1877",
        "website": "Needs website verification",
        "latitude": "44.797200",
        "longitude": "-106.956200"
      },
      "applied": {
        "address": "9 Timm Dr",
        "city": "Sheridan",
        "state": "WY",
        "phone": "(307) 673-1877",
        "website": "Needs website verification",
        "latitude": "44.763343",
        "longitude": "-107.089788"
      },
      "source": "https://maps.google.com/?cid=10888378845343063574"
    },
    {
      "key": "DOG_Continental_US_Oilfield_Service_Provider_Map_V2_20_Corridor_Expansion.csv|80",
      "company": "S & W Supply Co.",
      "prior": {
        "address": "300 East 8th",
        "city": "Hays",
        "state": "KS",
        "phone": "Needs direct confirmation",
        "website": "Needs verification",
        "latitude": "38.872600",
        "longitude": "-99.327000"
      },
      "applied": {
        "address": "300 E 8th St",
        "city": "Hays",
        "state": "KS",
        "phone": "(785) 625-7363",
        "website": "https://www.swsupply.net/",
        "latitude": "38.8688888",
        "longitude": "-99.3280563"
      },
      "source": "https://maps.google.com/?cid=15510369180884718782"
    },
    {
      "key": "DOG_Continental_US_Oilfield_Service_Provider_Map_V2_20_Corridor_Expansion.csv|87",
      "company": "Duke Drilling Co., Inc.",
      "prior": {
        "address": "100 S Main St, Suite 410",
        "city": "Wichita",
        "state": "KS",
        "phone": "Needs direct confirmation",
        "website": "Needs verification",
        "latitude": "37.686100",
        "longitude": "-97.338000"
      },
      "applied": {
        "address": "100 S Main St #410",
        "city": "Wichita",
        "state": "KS",
        "phone": "(316) 267-1331",
        "website": "Needs verification",
        "latitude": "37.685693",
        "longitude": "-97.337948"
      },
      "source": "https://maps.google.com/?cid=7373905133778464780"
    },
    {
      "key": "DOG_Continental_US_Oilfield_Service_Provider_Map_V2_20_Corridor_Expansion.csv|180",
      "company": "Main Logging Inc.",
      "prior": {
        "address": "City-level lead; exact office pending",
        "city": "Carlsbad",
        "state": "NM",
        "phone": "Needs direct confirmation",
        "website": "",
        "latitude": "32.420700",
        "longitude": "-104.228800"
      },
      "applied": {
        "address": "1111 N Mesa",
        "city": "Carlsbad",
        "state": "NM",
        "phone": "(575) 200-3449",
        "website": "http://www.mainlogging.net/",
        "latitude": "32.4369567",
        "longitude": "-104.2372969"
      },
      "source": "https://maps.google.com/?cid=14322725673336569954"
    },
    {
      "key": "DOG_Continental_US_Oilfield_Service_Provider_Map_V2_20_Corridor_Expansion.csv|221",
      "company": "Crown Energy Company",
      "prior": {
        "address": "Exact address pending",
        "city": "Oklahoma City",
        "state": "OK",
        "phone": "Needs direct confirmation",
        "website": "Needs website verification",
        "latitude": "35.467600",
        "longitude": "-97.516400"
      },
      "applied": {
        "address": "1117 NW 24th St",
        "city": "Oklahoma City",
        "state": "OK",
        "phone": "(405) 526-0111",
        "website": "http://www.crownec.com/",
        "latitude": "35.4944921",
        "longitude": "-97.5306559"
      },
      "source": "https://maps.google.com/?cid=8597765947133763148"
    },
    {
      "key": "DOG_Continental_US_Oilfield_Service_Provider_Map_V2_20_Corridor_Expansion.csv|311",
      "company": "Alpha Mud Logging Services, LLC",
      "prior": {
        "address": "8185 N FM 51",
        "city": "Decatur",
        "state": "TX",
        "phone": "Needs direct confirmation",
        "website": "",
        "latitude": "33.234300",
        "longitude": "-97.586100"
      },
      "applied": {
        "address": "8185 FM 51",
        "city": "Decatur",
        "state": "TX",
        "phone": "(940) 466-9676",
        "website": "",
        "latitude": "33.3738431",
        "longitude": "-97.41318799999999"
      },
      "source": "https://maps.google.com/?cid=6468768680031128685"
    },
    {
      "key": "DOG_Continental_US_Oilfield_Service_Provider_Map_V2_20_Corridor_Expansion.csv|13",
      "company": "C&J Well Services",
      "prior": {
        "address": "",
        "city": "Bakersfield",
        "state": "CA",
        "phone": "Needs direct confirmation",
        "website": "https://cjwellservices.com/",
        "latitude": "35.373300",
        "longitude": "-119.018700"
      },
      "applied": {
        "address": "3752 Allen Rd",
        "city": "Bakersfield",
        "state": "CA",
        "phone": "(661) 589-5220",
        "website": "https://cjws.com/",
        "latitude": "35.3941535",
        "longitude": "-119.1445388"
      },
      "source": "https://maps.google.com/?cid=7629935658110791959"
    },
    {
      "key": "DOG_Continental_US_Oilfield_Service_Provider_Map_V2_20_Corridor_Expansion.csv|14",
      "company": "CJ Well Services",
      "prior": {
        "address": "Exact address pending",
        "city": "Bakersfield",
        "state": "CA",
        "phone": "Needs direct confirmation",
        "website": "https://cjwellservices.com/about-cj-well-services/",
        "latitude": "35.373300",
        "longitude": "-119.018700"
      },
      "applied": {
        "address": "3752 Allen Rd",
        "city": "Bakersfield",
        "state": "CA",
        "phone": "(661) 589-5220",
        "website": "https://cjws.com/",
        "latitude": "35.3941535",
        "longitude": "-119.1445388"
      },
      "source": "https://maps.google.com/?cid=7629935658110791959"
    },
    {
      "key": "DOG_Continental_US_Oilfield_Service_Provider_Map_V2_20_Corridor_Expansion.csv|18",
      "company": "MMI Services",
      "prior": {
        "address": "",
        "city": "Bakersfield",
        "state": "CA",
        "phone": "Needs direct confirmation",
        "website": "https://mmi-services.com/",
        "latitude": "35.373300",
        "longitude": "-119.018700"
      },
      "applied": {
        "address": "4042 Patton Way",
        "city": "Bakersfield",
        "state": "CA",
        "phone": "(661) 589-9366",
        "website": "https://mmi-services.com/?utm_source=GMB&utm_medium=organic",
        "latitude": "35.3965898",
        "longitude": "-119.0825643"
      },
      "source": "https://maps.google.com/?cid=1003905992446865553"
    },
    {
      "key": "DOG_Continental_US_Oilfield_Service_Provider_Map_V2_20_Corridor_Expansion.csv|21",
      "company": "Pengo Wireline of California Inc.",
      "prior": {
        "address": "",
        "city": "Bakersfield",
        "state": "CA",
        "phone": "Needs direct confirmation",
        "website": "https://www.pengowireline.com/",
        "latitude": "35.373300",
        "longitude": "-119.018700"
      },
      "applied": {
        "address": "3529 Standard St",
        "city": "Bakersfield",
        "state": "CA",
        "phone": "(661) 327-9900",
        "website": "http://www.pengowireline.com/",
        "latitude": "35.3927785",
        "longitude": "-119.0478427"
      },
      "source": "https://maps.google.com/?cid=1772033175049964753"
    },
    {
      "key": "DOG_Continental_US_Oilfield_Service_Provider_Map_V2_20_Corridor_Expansion.csv|24",
      "company": "TRB Oilfield Services",
      "prior": {
        "address": "",
        "city": "Bakersfield",
        "state": "CA",
        "phone": "Needs direct confirmation",
        "website": "https://www.trb-oil.com/",
        "latitude": "35.373300",
        "longitude": "-119.018700"
      },
      "applied": {
        "address": "1806 Turner Ln",
        "city": "Bakersfield",
        "state": "CA",
        "phone": "(661) 587-2691",
        "website": "http://www.trb-oil.com/",
        "latitude": "35.422549",
        "longitude": "-119.0096293"
      },
      "source": "https://maps.google.com/?cid=15090531112854764814"
    },
    {
      "key": "DOG_Continental_US_Oilfield_Service_Provider_Map_V2_20_Corridor_Expansion.csv|28",
      "company": "Picarro",
      "prior": {
        "address": "3105 Patrick Henry Dr.",
        "city": "Santa Clara",
        "state": "CA",
        "phone": "Needs direct confirmation",
        "website": "https://www.picarro.com/",
        "latitude": "37.383000",
        "longitude": "-121.984800"
      },
      "applied": {
        "address": "3105 Patrick Henry Dr",
        "city": "Santa Clara",
        "state": "CA",
        "phone": "(408) 962-3900",
        "website": "http://www.picarro.com/",
        "latitude": "37.3965317",
        "longitude": "-121.9843144"
      },
      "source": "https://maps.google.com/?cid=4768065494112804391"
    },
    {
      "key": "DOG_Continental_US_Oilfield_Service_Provider_Map_V2_20_Corridor_Expansion.csv|34",
      "company": "Power Zone Equipment",
      "prior": {
        "address": "Corporate city-level",
        "city": "Center",
        "state": "CO",
        "phone": "Needs direct confirmation",
        "website": "https://inventory.powerzone.com/",
        "latitude": "37.753100",
        "longitude": "-106.108100"
      },
      "applied": {
        "address": "46920 Co Rd E",
        "city": "Center",
        "state": "CO",
        "phone": "(719) 754-1981",
        "website": "http://www.powerzone.com/",
        "latitude": "37.8057651",
        "longitude": "-106.1486098"
      },
      "source": "https://maps.google.com/?cid=8844010354284036670"
    },
    {
      "key": "DOG_Continental_US_Oilfield_Service_Provider_Map_V2_20_Corridor_Expansion.csv|52",
      "company": "Geo. N. Mitchell Drilling Company",
      "prior": {
        "address": "",
        "city": "Carmi",
        "state": "IL",
        "phone": "",
        "website": "https://www.mitchell-drilling.com/",
        "latitude": "38.090900",
        "longitude": "-88.158600"
      },
      "applied": {
        "address": "1239 County Rd 1500 N",
        "city": "Carmi",
        "state": "IL",
        "phone": "(618) 382-2343",
        "website": "https://www.mitchell-drilling.com/",
        "latitude": "38.0971853",
        "longitude": "-88.14413250000001"
      },
      "source": "https://maps.google.com/?cid=3826353866187037525"
    },
    {
      "key": "DOG_Continental_US_Oilfield_Service_Provider_Map_V2_20_Corridor_Expansion.csv|67",
      "company": "GeoLog Well Services, Inc.",
      "prior": {
        "address": "506 W Smith St",
        "city": "Wayne City",
        "state": "IL",
        "phone": "Needs direct confirmation",
        "website": "https://www.glwsi.com/",
        "latitude": "38.345900",
        "longitude": "-88.587600"
      },
      "applied": {
        "address": "506 W Smith St",
        "city": "Wayne City",
        "state": "IL",
        "phone": "(618) 895-2140",
        "website": "https://www.glwsi.com/",
        "latitude": "38.34803730000001",
        "longitude": "-88.59340530000001"
      },
      "source": "https://maps.google.com/?cid=17587695978945987210"
    },
    {
      "key": "DOG_Continental_US_Oilfield_Service_Provider_Map_V2_20_Corridor_Expansion.csv|71",
      "company": "Cook Pump Company",
      "prior": {
        "address": "City-level; exact address pending",
        "city": "Coffeyville",
        "state": "KS",
        "phone": "Needs direct confirmation",
        "website": "https://cookpumpingjacks.com/",
        "latitude": "37.037300",
        "longitude": "-95.616400"
      },
      "applied": {
        "address": "1400 W 12th St",
        "city": "Coffeyville",
        "state": "KS",
        "phone": "(620) 251-0880",
        "website": "http://www.cookpumpingjacks.com/",
        "latitude": "37.032054",
        "longitude": "-95.6385767"
      },
      "source": "https://maps.google.com/?cid=18106631831486493433"
    },
    {
      "key": "DOG_Continental_US_Oilfield_Service_Provider_Map_V2_20_Corridor_Expansion.csv|76",
      "company": "Discovery Drilling",
      "prior": {
        "address": "Location extraction pending",
        "city": "Hays",
        "state": "KS",
        "phone": "Needs direct confirmation",
        "website": "https://drlg4ksoil.com/",
        "latitude": "38.879200",
        "longitude": "-99.326800"
      },
      "applied": {
        "address": "1029 Reservation Rd",
        "city": "Hays",
        "state": "KS",
        "phone": "(785) 623-2920",
        "website": "https://drlg4ksoil.com/",
        "latitude": "38.8579685",
        "longitude": "-99.3135977"
      },
      "source": "https://maps.google.com/?cid=17631787043148544486"
    },
    {
      "key": "DOG_Continental_US_Oilfield_Service_Provider_Map_V2_20_Corridor_Expansion.csv|77",
      "company": "ELI Wireline Services",
      "prior": {
        "address": "Exact address pending",
        "city": "Hays",
        "state": "KS",
        "phone": "Needs direct confirmation",
        "website": "https://www.eliwireline.com/",
        "latitude": "38.879200",
        "longitude": "-99.326800"
      },
      "applied": {
        "address": "1844 250th Ave",
        "city": "Hays",
        "state": "KS",
        "phone": "(785) 628-6395",
        "website": "http://eliwireline.com/",
        "latitude": "38.9495828",
        "longitude": "-99.315507"
      },
      "source": "https://maps.google.com/?cid=17371370621300658623"
    },
    {
      "key": "DOG_Continental_US_Oilfield_Service_Provider_Map_V2_20_Corridor_Expansion.csv|90",
      "company": "Pickrell Drilling Company, Inc.",
      "prior": {
        "address": "",
        "city": "Wichita",
        "state": "KS",
        "phone": "Needs direct confirmation",
        "website": "https://www.pickrelldrlg.com/",
        "latitude": "37.687200",
        "longitude": "-97.330100"
      },
      "applied": {
        "address": "929 W Douglas Ave",
        "city": "Wichita",
        "state": "KS",
        "phone": "(316) 262-8427",
        "website": "https://www.pickrelldrlg.com/",
        "latitude": "37.683705",
        "longitude": "-97.3515925"
      },
      "source": "https://maps.google.com/?cid=2816973409998255719"
    },
    {
      "key": "DOG_Continental_US_Oilfield_Service_Provider_Map_V2_20_Corridor_Expansion.csv|91",
      "company": "Quest Drilling Company",
      "prior": {
        "address": "",
        "city": "Wichita",
        "state": "KS",
        "phone": "Needs direct confirmation",
        "website": "https://questdrillingservices.com/",
        "latitude": "37.687200",
        "longitude": "-97.330100"
      },
      "applied": {
        "address": "8621 E 21st St N",
        "city": "Wichita",
        "state": "KS",
        "phone": "(316) 260-2196",
        "website": "https://questdrillingservices.com/",
        "latitude": "37.72154860000001",
        "longitude": "-97.2378816"
      },
      "source": "https://maps.google.com/?cid=16931369468682597931"
    },
    {
      "key": "DOG_Continental_US_Oilfield_Service_Provider_Map_V2_20_Corridor_Expansion.csv|92",
      "company": "Sunrise Oilfield Supply",
      "prior": {
        "address": "Corporate / branch extraction pending",
        "city": "Wichita",
        "state": "KS",
        "phone": "Needs direct confirmation",
        "website": "https://sunriseoilfieldsupply.com/",
        "latitude": "37.687200",
        "longitude": "-97.330100"
      },
      "applied": {
        "address": "100 S Main St Ste. 300",
        "city": "Wichita",
        "state": "KS",
        "phone": "(316) 263-6060",
        "website": "http://www.sunriseoilfieldsupply.com/",
        "latitude": "37.6863563",
        "longitude": "-97.33591709999999"
      },
      "source": "https://maps.google.com/?cid=1024338412667618654"
    },
    {
      "key": "DOG_Continental_US_Oilfield_Service_Provider_Map_V2_20_Corridor_Expansion.csv|115",
      "company": "ControlWorx",
      "prior": {
        "address": "Corporate city-level",
        "city": "Baton Rouge",
        "state": "LA",
        "phone": "Needs direct confirmation",
        "website": "https://controlworx.com/",
        "latitude": "30.451500",
        "longitude": "-91.187100"
      },
      "applied": {
        "address": "17630 Perkins Rd",
        "city": "Baton Rouge",
        "state": "LA",
        "phone": "(225) 755-1706",
        "website": "https://www.johnhcarter.com/about-us/controlworx/",
        "latitude": "30.3466214",
        "longitude": "-91.0324523"
      },
      "source": "https://maps.google.com/?cid=6403912659128851912"
    },
    {
      "key": "DOG_Continental_US_Oilfield_Service_Provider_Map_V2_20_Corridor_Expansion.csv|130",
      "company": "Premium Oilfield Services",
      "prior": {
        "address": "Exact address pending",
        "city": "New Iberia",
        "state": "LA",
        "phone": "Needs direct confirmation",
        "website": "http://www.premiumofs.com/index.html",
        "latitude": "30.003500",
        "longitude": "-91.818700"
      },
      "applied": {
        "address": "4819 Hwy 90 E",
        "city": "New Iberia",
        "state": "LA",
        "phone": "(337) 608-9136",
        "website": "http://www.premiumofs.com/index.html",
        "latitude": "30.0215685",
        "longitude": "-91.9154267"
      },
      "source": "https://maps.google.com/?cid=1960805910560985812"
    },
    {
      "key": "DOG_Continental_US_Oilfield_Service_Provider_Map_V2_20_Corridor_Expansion.csv|135",
      "company": "Amplified Industries",
      "prior": {
        "address": "Headquarters city-level",
        "city": "Boston",
        "state": "MA",
        "phone": "Needs direct confirmation",
        "website": "https://amplified.industries/",
        "latitude": "42.360100",
        "longitude": "-71.058900"
      },
      "applied": {
        "address": "5-11 Drydock Ave Ste 2040",
        "city": "Boston",
        "state": "MA",
        "phone": "(617) 286-2358",
        "website": "https://amplified.industries/",
        "latitude": "42.3442883",
        "longitude": "-71.0360457"
      },
      "source": "https://maps.google.com/?cid=8038572743350750300"
    },
    {
      "key": "DOG_Continental_US_Oilfield_Service_Provider_Map_V2_20_Corridor_Expansion.csv|179",
      "company": "Aztec Well Servicing Company",
      "prior": {
        "address": "Exact address pending",
        "city": "Aztec",
        "state": "NM",
        "phone": "Needs direct confirmation",
        "website": "https://www.aztecwellservicing.com/",
        "latitude": "36.822200",
        "longitude": "-107.992800"
      },
      "applied": {
        "address": "900 S Main Ave",
        "city": "Aztec",
        "state": "NM",
        "phone": "(505) 334-6191",
        "website": "http://www.aztecwell.com/",
        "latitude": "36.8082889",
        "longitude": "-107.9991089"
      },
      "source": "https://maps.google.com/?cid=14943292159950263044"
    },
    {
      "key": "DOG_Continental_US_Oilfield_Service_Provider_Map_V2_20_Corridor_Expansion.csv|206",
      "company": "Rhodes Manufacturing",
      "prior": {
        "address": "City-level; exact address pending",
        "city": "Somerset",
        "state": "OH",
        "phone": "Needs direct confirmation",
        "website": "https://rhodesmfg.com/",
        "latitude": "39.807600",
        "longitude": "-82.297100"
      },
      "applied": {
        "address": "7045 Buckeye Valley Rd",
        "city": "Somerset",
        "state": "OH",
        "phone": "(740) 743-2614",
        "website": "https://www.rhodesmfg.com/",
        "latitude": "39.7938423",
        "longitude": "-82.2353134"
      },
      "source": "https://maps.google.com/?cid=18360449428693450004"
    },
    {
      "key": "DOG_Continental_US_Oilfield_Service_Provider_Map_V2_20_Corridor_Expansion.csv|209",
      "company": "KSW Oilfield Rental",
      "prior": {
        "address": "Corporate / Bixby-area location needs confirmation",
        "city": "Bixby",
        "state": "OK",
        "phone": "Needs direct confirmation",
        "website": "https://www.kswoilfield.com/",
        "latitude": "35.942000",
        "longitude": "-95.883300"
      },
      "applied": {
        "address": "7619 East 126th St S #100",
        "city": "Bixby",
        "state": "OK",
        "phone": "(918) 933-6856",
        "website": "https://www.kswoilfield.com/",
        "latitude": "35.9843609",
        "longitude": "-95.89042069999999"
      },
      "source": "https://maps.google.com/?cid=6718311233536911080"
    },
    {
      "key": "DOG_Continental_US_Oilfield_Service_Provider_Map_V2_20_Corridor_Expansion.csv|214",
      "company": "MCWL Paladin Geological Services",
      "prior": {
        "address": "City-level lead; exact office pending",
        "city": "Norman",
        "state": "OK",
        "phone": "Needs direct confirmation",
        "website": "https://www.mcwlinc.com/",
        "latitude": "35.222600",
        "longitude": "-97.439500"
      },
      "applied": {
        "address": "Norman, OK 73069, USA",
        "city": "Norman",
        "state": "OK",
        "phone": "Needs direct confirmation",
        "website": "https://www.mcwlinc.com/",
        "latitude": "35.2885507",
        "longitude": "-97.484866"
      },
      "source": "https://maps.google.com/?cid=299794848740020262"
    },
    {
      "key": "DOG_Continental_US_Oilfield_Service_Provider_Map_V2_20_Corridor_Expansion.csv|238",
      "company": "Arrow Engine Company",
      "prior": {
        "address": "City-level; exact address pending",
        "city": "Tulsa",
        "state": "OK",
        "phone": "Needs direct confirmation",
        "website": "https://www.arrowengine.com/",
        "latitude": "36.154000",
        "longitude": "-95.992800"
      },
      "applied": {
        "address": "2301 E Independence St",
        "city": "Tulsa",
        "state": "OK",
        "phone": "(800) 331-3662",
        "website": "http://arrowengine.com/",
        "latitude": "36.166538",
        "longitude": "-95.959249"
      },
      "source": "https://maps.google.com/?cid=6832172469550850324"
    },
    {
      "key": "DOG_Continental_US_Oilfield_Service_Provider_Map_V2_20_Corridor_Expansion.csv|261",
      "company": "Keystone Clearwater Solutions - Hershey HQ",
      "prior": {
        "address": "34 Northeast Drive",
        "city": "Hershey",
        "state": "PA",
        "phone": "Needs direct confirmation",
        "website": "https://keystoneclear.com/",
        "latitude": "40.285900",
        "longitude": "-76.650200"
      },
      "applied": {
        "address": "34 Northeast Dr",
        "city": "Hershey",
        "state": "PA",
        "phone": "(717) 508-0550",
        "website": "https://keystoneclear.com/",
        "latitude": "40.2917251",
        "longitude": "-76.64922969999999"
      },
      "source": "https://maps.google.com/?cid=18380686529864437466"
    },
    {
      "key": "DOG_Continental_US_Oilfield_Service_Provider_Map_V2_20_Corridor_Expansion.csv|262",
      "company": "Falcon Drilling",
      "prior": {
        "address": "",
        "city": "Indiana",
        "state": "PA",
        "phone": "Needs direct confirmation",
        "website": "https://www.falcondrilling.com/",
        "latitude": "40.621500",
        "longitude": "-79.152500"
      },
      "applied": {
        "address": "1120 US-119",
        "city": "Indiana",
        "state": "PA",
        "phone": "(412) 489-5881",
        "website": "http://falcondrilling.com/",
        "latitude": "40.6841573",
        "longitude": "-79.0997303"
      },
      "source": "https://maps.google.com/?cid=12373753319495887554"
    },
    {
      "key": "DOG_Continental_US_Oilfield_Service_Provider_Map_V2_20_Corridor_Expansion.csv|265",
      "company": "Horizontal Wireline Services",
      "prior": {
        "address": "",
        "city": "Irwin",
        "state": "PA",
        "phone": "",
        "website": "https://horizontalwireline.com/",
        "latitude": "40.324000",
        "longitude": "-79.701200"
      },
      "applied": {
        "address": "381 Colonial Manor Rd",
        "city": "Irwin",
        "state": "PA",
        "phone": "(724) 382-5012",
        "website": "https://horizontalwireline.com/",
        "latitude": "40.3365893",
        "longitude": "-79.7592932"
      },
      "source": "https://maps.google.com/?cid=14270691378972135708"
    },
    {
      "key": "DOG_Continental_US_Oilfield_Service_Provider_Map_V2_20_Corridor_Expansion.csv|288",
      "company": "Deep Well Services",
      "prior": {
        "address": "",
        "city": "Zelienople",
        "state": "PA",
        "phone": "Needs direct confirmation",
        "website": "https://deepwellservices.com/",
        "latitude": "40.794000",
        "longitude": "-80.136700"
      },
      "applied": {
        "address": "719 W New Castle St",
        "city": "Zelienople",
        "state": "PA",
        "phone": "(724) 473-0687",
        "website": "https://deepwellservices.com/",
        "latitude": "40.7948919",
        "longitude": "-80.1491391"
      },
      "source": "https://maps.google.com/?cid=14165637878651684946"
    },
    {
      "key": "DOG_Continental_US_Oilfield_Service_Provider_Map_V2_20_Corridor_Expansion.csv|301",
      "company": "FESCO, Ltd.",
      "prior": {
        "address": "",
        "city": "Alice",
        "state": "TX",
        "phone": "Needs direct confirmation",
        "website": "https://www.fescoinc.com/",
        "latitude": "27.752200",
        "longitude": "-98.069700"
      },
      "applied": {
        "address": "1000 Fesco Ave",
        "city": "Alice",
        "state": "TX",
        "phone": "(361) 661-7000",
        "website": "https://www.fescoinc.com/",
        "latitude": "27.74365",
        "longitude": "-98.03572299999999"
      },
      "source": "https://maps.google.com/?cid=8836721174317075936"
    },
    {
      "key": "DOG_Continental_US_Oilfield_Service_Provider_Map_V2_20_Corridor_Expansion.csv|303",
      "company": "SeekOps",
      "prior": {
        "address": "City-level headquarters; exact office verification recommended",
        "city": "Austin",
        "state": "TX",
        "phone": "Needs direct confirmation",
        "website": "https://seekops.com/",
        "latitude": "30.267200",
        "longitude": "-97.743100"
      },
      "applied": {
        "address": "1205 Sheldon Cove Bldg 1, Suite A",
        "city": "Austin",
        "state": "TX",
        "phone": "(512) 852-8100",
        "website": "http://www.seekops.com/",
        "latitude": "30.3438515",
        "longitude": "-97.6843529"
      },
      "source": "https://maps.google.com/?cid=3181353499638846067"
    },
    {
      "key": "DOG_Continental_US_Oilfield_Service_Provider_Map_V2_20_Corridor_Expansion.csv|315",
      "company": "Ulterra Drilling Technologies",
      "prior": {
        "address": "Fort Worth, TX; exact address pending",
        "city": "Fort Worth",
        "state": "TX",
        "phone": "Needs direct confirmation",
        "website": "https://ulterra.com/",
        "latitude": "32.755500",
        "longitude": "-97.330800"
      },
      "applied": {
        "address": "201 Main St #1660",
        "city": "Fort Worth",
        "state": "TX",
        "phone": "(844) 858-3772",
        "website": "http://www.ulterra.com/",
        "latitude": "32.7563313",
        "longitude": "-97.3319348"
      },
      "source": "https://maps.google.com/?cid=5503762160339214309"
    },
    {
      "key": "DOG_Continental_US_Oilfield_Service_Provider_Map_V2_20_Corridor_Expansion.csv|332",
      "company": "Drilling Tools International",
      "prior": {
        "address": "",
        "city": "Houston",
        "state": "TX",
        "phone": "",
        "website": "https://www.drillingtools.com/",
        "latitude": "29.760400",
        "longitude": "-95.369800"
      },
      "applied": {
        "address": "1612 Southcreek Ln",
        "city": "Houston",
        "state": "TX",
        "phone": "(281) 645-2010",
        "website": "http://www.drillingtools.com/",
        "latitude": "30.0068645",
        "longitude": "-95.395963"
      },
      "source": "https://maps.google.com/?cid=18336501607062198809"
    },
    {
      "key": "DOG_Continental_US_Oilfield_Service_Provider_Map_V2_20_Corridor_Expansion.csv|334",
      "company": "Ensign Energy Services",
      "prior": {
        "address": "",
        "city": "Houston",
        "state": "TX",
        "phone": "Needs local office confirmation",
        "website": "https://ensignenergy.com/",
        "latitude": "29.760400",
        "longitude": "-95.369800"
      },
      "applied": {
        "address": "9300 Telephone Rd",
        "city": "Houston",
        "state": "TX",
        "phone": "(281) 872-7770",
        "website": "https://www.ensignenergy.com/",
        "latitude": "29.6302364",
        "longitude": "-95.2867713"
      },
      "source": "https://maps.google.com/?cid=12731876267998833886"
    },
    {
      "key": "DOG_Continental_US_Oilfield_Service_Provider_Map_V2_20_Corridor_Expansion.csv|341",
      "company": "Global Compression Services",
      "prior": {
        "address": "Headquarters/service center city-level",
        "city": "Houston",
        "state": "TX",
        "phone": "Needs direct confirmation",
        "website": "https://www.global-compression.com/",
        "latitude": "29.760400",
        "longitude": "-95.369800"
      },
      "applied": {
        "address": "6603 Lozano Dr",
        "city": "Houston",
        "state": "TX",
        "phone": "(713) 983-8773",
        "website": "https://www.global-compression.com/",
        "latitude": "29.87096279999999",
        "longitude": "-95.6153695"
      },
      "source": "https://maps.google.com/?cid=11552753051206475590"
    },
    {
      "key": "DOG_Continental_US_Oilfield_Service_Provider_Map_V2_20_Corridor_Expansion.csv|354",
      "company": "KLX Energy Services",
      "prior": {
        "address": "Operating region extraction pending",
        "city": "Houston",
        "state": "TX",
        "phone": "Needs direct confirmation",
        "website": "https://klx.com/",
        "latitude": "29.760400",
        "longitude": "-95.369800"
      },
      "applied": {
        "address": "3040 Post Oak Blvd 15th floor",
        "city": "Houston",
        "state": "TX",
        "phone": "(832) 844-1015",
        "website": "http://klxenergy.com/",
        "latitude": "29.734955",
        "longitude": "-95.46282300000001"
      },
      "source": "https://maps.google.com/?cid=5643600792801461576"
    },
    {
      "key": "DOG_Continental_US_Oilfield_Service_Provider_Map_V2_20_Corridor_Expansion.csv|355",
      "company": "Key Energy Services",
      "prior": {
        "address": "",
        "city": "Houston",
        "state": "TX",
        "phone": "Needs local office confirmation",
        "website": "https://www.keyenergy.com/",
        "latitude": "29.760400",
        "longitude": "-95.369800"
      },
      "applied": {
        "address": "4400 Post Oak Pkwy",
        "city": "Houston",
        "state": "TX",
        "phone": "(713) 552-1096",
        "website": "https://www.keyenergy.com/",
        "latitude": "29.7477721",
        "longitude": "-95.45170759999999"
      },
      "source": "https://maps.google.com/?cid=6209229929203160525"
    },
    {
      "key": "DOG_Continental_US_Oilfield_Service_Provider_Map_V2_20_Corridor_Expansion.csv|357",
      "company": "Liberty Lift Solutions",
      "prior": {
        "address": "Headquarters city-level",
        "city": "Houston",
        "state": "TX",
        "phone": "Needs direct confirmation",
        "website": "https://libertylift.com/",
        "latitude": "29.760400",
        "longitude": "-95.369800"
      },
      "applied": {
        "address": "16285 Park Ten Pl #400",
        "city": "Houston",
        "state": "TX",
        "phone": "(713) 575-2300",
        "website": "https://libertylift.com/locations/houston/?utm_source=local&utm_medium=organic&utm_campaign=gmb",
        "latitude": "29.7863893",
        "longitude": "-95.6648744"
      },
      "source": "https://maps.google.com/?cid=331445176731646536"
    },
    {
      "key": "DOG_Continental_US_Oilfield_Service_Provider_Map_V2_20_Corridor_Expansion.csv|365",
      "company": "Nabors Industries",
      "prior": {
        "address": "515 West Greens Road",
        "city": "Houston",
        "state": "TX",
        "phone": "Needs local office confirmation",
        "website": "https://www.nabors.com/",
        "latitude": "29.950400",
        "longitude": "-95.410700"
      },
      "applied": {
        "address": "515 W Greens Rd",
        "city": "Houston",
        "state": "TX",
        "phone": "(281) 874-0035",
        "website": "https://www.nabors.com/",
        "latitude": "29.9484542",
        "longitude": "-95.4236073"
      },
      "source": "https://maps.google.com/?cid=16809035155810776786"
    },
    {
      "key": "DOG_Continental_US_Oilfield_Service_Provider_Map_V2_20_Corridor_Expansion.csv|371",
      "company": "Precision Drilling",
      "prior": {
        "address": "",
        "city": "Houston",
        "state": "TX",
        "phone": "Needs local office confirmation",
        "website": "https://www.precisiondrilling.com/",
        "latitude": "29.760400",
        "longitude": "-95.369800"
      },
      "applied": {
        "address": "10350 Richmond Ave #700",
        "city": "Houston",
        "state": "TX",
        "phone": "(713) 435-6100",
        "website": "https://www.precisiondrilling.com/",
        "latitude": "29.7282346",
        "longitude": "-95.55567040000001"
      },
      "source": "https://maps.google.com/?cid=10518708678403852292"
    },
    {
      "key": "DOG_Continental_US_Oilfield_Service_Provider_Map_V2_20_Corridor_Expansion.csv|372",
      "company": "Premium Oilfield Technologies",
      "prior": {
        "address": "Corporate city-level",
        "city": "Houston",
        "state": "TX",
        "phone": "Needs direct confirmation",
        "website": "https://www.premiumoilfield.com/",
        "latitude": "29.760400",
        "longitude": "-95.369800"
      },
      "applied": {
        "address": "8401 Westland W Blvd",
        "city": "Houston",
        "state": "TX",
        "phone": "(281) 679-6500",
        "website": "https://www.premiumoilfield.com/",
        "latitude": "29.8996945",
        "longitude": "-95.6125082"
      },
      "source": "https://maps.google.com/?cid=6025065150124766781"
    },
    {
      "key": "DOG_Continental_US_Oilfield_Service_Provider_Map_V2_20_Corridor_Expansion.csv|388",
      "company": "Superior Energy Services",
      "prior": {
        "address": "",
        "city": "Houston",
        "state": "TX",
        "phone": "Needs local office confirmation",
        "website": "https://superiorenergy.com/",
        "latitude": "29.760400",
        "longitude": "-95.369800"
      },
      "applied": {
        "address": "1001 Louisiana St #2900",
        "city": "Houston",
        "state": "TX",
        "phone": "(713) 654-2200",
        "website": "https://superiorenergy.com/",
        "latitude": "29.75779889999999",
        "longitude": "-95.3677757"
      },
      "source": "https://maps.google.com/?cid=6418954762604296904"
    },
    {
      "key": "DOG_Continental_US_Oilfield_Service_Provider_Map_V2_20_Corridor_Expansion.csv|392",
      "company": "U. S. Steel Tubular Products",
      "prior": {
        "address": "Corporate / product source lead; exact operating facility verification recommended",
        "city": "Houston",
        "state": "TX",
        "phone": "Needs direct confirmation",
        "website": "https://www.ussteel.com/customers/products/tubular/octg",
        "latitude": "29.760400",
        "longitude": "-95.369800"
      },
      "applied": {
        "address": "9518 E Mt Houston Rd",
        "city": "Houston",
        "state": "TX",
        "phone": "(831) 201-5353",
        "website": "https://www.ussteel.com/",
        "latitude": "29.8902268",
        "longitude": "-95.2453692"
      },
      "source": "https://maps.google.com/?cid=5630538065516008932"
    },
    {
      "key": "DOG_Continental_US_Oilfield_Service_Provider_Map_V2_20_Corridor_Expansion.csv|399",
      "company": "Wellbore Integrity Solutions",
      "prior": {
        "address": "Branch extraction pending",
        "city": "Houston",
        "state": "TX",
        "phone": "Needs local confirmation",
        "website": "https://www.wellboreintegrity.com/",
        "latitude": "29.760400",
        "longitude": "-95.369800"
      },
      "applied": {
        "address": "1310 Rankin Rd Building 18",
        "city": "Houston",
        "state": "TX",
        "phone": "(281) 975-2500",
        "website": "http://www.wellboreintegrity.com/",
        "latitude": "29.96403999999999",
        "longitude": "-95.38536649999999"
      },
      "source": "https://maps.google.com/?cid=11834699145008836010"
    },
    {
      "key": "DOG_Continental_US_Oilfield_Service_Provider_Map_V2_20_Corridor_Expansion.csv|407",
      "company": "Axis Energy Services",
      "prior": {
        "address": "",
        "city": "Longview",
        "state": "TX",
        "phone": "",
        "website": "https://axisofs.com/",
        "latitude": "32.500700",
        "longitude": "-94.740500"
      },
      "applied": {
        "address": "2758 S Access Rd",
        "city": "Longview",
        "state": "TX",
        "phone": "(903) 643-3700",
        "website": "https://www.axisofs.com/",
        "latitude": "32.4579013",
        "longitude": "-94.67549029999999"
      },
      "source": "https://maps.google.com/?cid=14039091262321240980"
    },
    {
      "key": "DOG_Continental_US_Oilfield_Service_Provider_Map_V2_20_Corridor_Expansion.csv|409",
      "company": "Alphatech Geological Services LLC",
      "prior": {
        "address": "214 W Texas Ave, Suite 1109",
        "city": "Midland",
        "state": "TX",
        "phone": "Needs direct confirmation",
        "website": "https://www.linkedin.com/company/alphatech-geological-mud-logging-services",
        "latitude": "31.997300",
        "longitude": "-102.077900"
      },
      "applied": {
        "address": "214 W Texas Ave Ste 1109",
        "city": "Midland",
        "state": "TX",
        "phone": "(432) 234-1654",
        "website": "https://www.linkedin.com/company/alphatech-geological-mud-logging-services",
        "latitude": "31.9988082",
        "longitude": "-102.0765591"
      },
      "source": "https://maps.google.com/?cid=12527125169827178323"
    },
    {
      "key": "DOG_Continental_US_Oilfield_Service_Provider_Map_V2_20_Corridor_Expansion.csv|424",
      "company": "Tenaris - Midland Service Center",
      "prior": {
        "address": "2418 N. County Road 1119",
        "city": "Midland",
        "state": "TX",
        "phone": "Needs direct confirmation",
        "website": "https://www.tenaris.com/",
        "latitude": "32.000000",
        "longitude": "-102.077900"
      },
      "applied": {
        "address": "2418 N County Rd 1119",
        "city": "Midland",
        "state": "TX",
        "phone": "(877) 836-2747",
        "website": "http://www.tenaris.com/",
        "latitude": "32.0475599",
        "longitude": "-101.9711862"
      },
      "source": "https://maps.google.com/?cid=16778461319491689959"
    },
    {
      "key": "DOG_Continental_US_Oilfield_Service_Provider_Map_V2_20_Corridor_Expansion.csv|448",
      "company": "Cudd Energy Services",
      "prior": {
        "address": "",
        "city": "The Woodlands",
        "state": "TX",
        "phone": "Needs local office confirmation",
        "website": "https://cudd.com/",
        "latitude": "30.165800",
        "longitude": "-95.461300"
      },
      "applied": {
        "address": "2828 Technology Forest Blvd",
        "city": "The Woodlands",
        "state": "TX",
        "phone": "(832) 295-5555",
        "website": "http://www.cuddenergyservices.com/",
        "latitude": "30.1750734",
        "longitude": "-95.48154249999999"
      },
      "source": "https://maps.google.com/?cid=416425909509523075"
    },
    {
      "key": "DOG_Continental_US_Oilfield_Service_Provider_Map_V2_20_Corridor_Expansion.csv|449",
      "company": "Innospec Oilfield Services",
      "prior": {
        "address": "The Woodlands, TX; exact office pending",
        "city": "The Woodlands",
        "state": "TX",
        "phone": "Needs direct confirmation",
        "website": "https://innospec.com/oilfield/",
        "latitude": "30.165800",
        "longitude": "-95.461300"
      },
      "applied": {
        "address": "2600 Technology Forest Blvd",
        "city": "The Woodlands",
        "state": "TX",
        "phone": "(713) 936-4340",
        "website": "https://innospec.com/oilfield/",
        "latitude": "30.1742645",
        "longitude": "-95.479002"
      },
      "source": "https://maps.google.com/?cid=18002205368558760273"
    },
    {
      "key": "DOG_Continental_US_Oilfield_Service_Provider_Map_V2_20_Corridor_Expansion.csv|476",
      "company": "MidAtlantic Energy Services",
      "prior": {
        "address": "",
        "city": "Morgantown",
        "state": "WV",
        "phone": "",
        "website": "https://www.maeservice.com/",
        "latitude": "39.629500",
        "longitude": "-79.955900"
      },
      "applied": {
        "address": "1910 S Dents Run Rd",
        "city": "Morgantown",
        "state": "WV",
        "phone": "(304) 598-0100",
        "website": "http://www.maeservice.com/",
        "latitude": "39.619452",
        "longitude": "-79.9913124"
      },
      "source": "https://maps.google.com/?cid=9094034495923337320"
    },
    {
      "key": "DOG_Continental_US_Oilfield_Service_Provider_Map_V2_20_Corridor_Expansion.csv|111",
      "company": "Eagle Well Service, Inc.",
      "prior": {
        "address": "314 Parsons Place",
        "city": "Salyersville",
        "state": "KY",
        "phone": "606-349-4141",
        "website": "Needs direct website confirmation",
        "latitude": "37.752600",
        "longitude": "-83.068800"
      },
      "applied": {
        "address": "440 Ivyton Rd",
        "city": "Salyersville",
        "state": "KY",
        "phone": "606-349-4141",
        "website": "Needs direct website confirmation",
        "latitude": "37.702313",
        "longitude": "-82.9788428"
      },
      "source": "https://maps.google.com/?cid=17490668089300151101"
    },
    {
      "key": "DOG_Continental_US_Oilfield_Service_Provider_Map_V2_20_Corridor_Expansion.csv|175",
      "company": "Catalyst Oil Field Services",
      "prior": {
        "address": "Exact address pending",
        "city": "Artesia",
        "state": "NM",
        "phone": "575-746-2910",
        "website": "Needs company website verification",
        "latitude": "32.842300",
        "longitude": "-104.403300"
      },
      "applied": {
        "address": "13 Arrowhead Rd",
        "city": "Artesia",
        "state": "NM",
        "phone": "(575) 746-2910",
        "website": "Needs company website verification",
        "latitude": "32.833027",
        "longitude": "-104.305678"
      },
      "source": "https://maps.google.com/?cid=4047068850333489114"
    },
    {
      "key": "DOG_Continental_US_Oilfield_Service_Provider_Map_V2_20_Corridor_Expansion.csv|200",
      "company": "DeepRock Disposal Solutions LLC",
      "prior": {
        "address": "20225 State Route 7",
        "city": "Marietta",
        "state": "OH",
        "phone": "412-580-0935",
        "website": "Needs website confirmation",
        "latitude": "39.415400",
        "longitude": "-81.454800"
      },
      "applied": {
        "address": "20225 OH-7",
        "city": "Marietta",
        "state": "OH",
        "phone": "(740) 885-2111",
        "website": "Needs website confirmation",
        "latitude": "39.4032348",
        "longitude": "-81.4728743"
      },
      "source": "https://maps.google.com/?cid=3844470992017961825"
    },
    {
      "key": "DOG_Continental_US_Oilfield_Service_Provider_Map_V2_20_Corridor_Expansion.csv|505",
      "company": "JC Well Services",
      "prior": {
        "address": "",
        "city": "Gillette",
        "state": "WY",
        "phone": "307-670-9044",
        "website": "",
        "latitude": "44.291100",
        "longitude": "-105.502200"
      },
      "applied": {
        "address": "2705 Hackathorn Ln",
        "city": "Gillette",
        "state": "WY",
        "phone": "(307) 670-9044",
        "website": "",
        "latitude": "44.32182479999999",
        "longitude": "-105.5274449"
      },
      "source": "https://maps.google.com/?cid=9276442470947292245"
    },
    {
      "key": "DOG_Continental_US_Oilfield_Service_Provider_Map_V2_20_Corridor_Expansion.csv|506",
      "company": "Jim's Water Service",
      "prior": {
        "address": "",
        "city": "Gillette",
        "state": "WY",
        "phone": "307-682-1642 / 307-682-4051",
        "website": "",
        "latitude": "44.291100",
        "longitude": "-105.502200"
      },
      "applied": {
        "address": "205 Newton Rd",
        "city": "Gillette",
        "state": "WY",
        "phone": "(307) 682-4051",
        "website": "",
        "latitude": "44.296383",
        "longitude": "-105.5329241"
      },
      "source": "https://maps.google.com/?cid=4626171569733922714"
    },
    {
      "key": "DOG_Continental_US_Oilfield_Service_Provider_Map_V2_20_Corridor_Expansion.csv|19",
      "company": "Norman Wireline Services",
      "prior": {
        "address": "Exact address pending",
        "city": "Bakersfield",
        "state": "CA",
        "phone": "661-399-5697",
        "website": "https://normanwireline.com/",
        "latitude": "35.373300",
        "longitude": "-119.018700"
      },
      "applied": {
        "address": "1301 James Rd",
        "city": "Bakersfield",
        "state": "CA",
        "phone": "(661) 399-5697",
        "website": "https://normanwireline.com/",
        "latitude": "35.4508424",
        "longitude": "-119.0353867"
      },
      "source": "https://maps.google.com/?cid=4495698851009492708"
    },
    {
      "key": "DOG_Continental_US_Oilfield_Service_Provider_Map_V2_20_Corridor_Expansion.csv|51",
      "company": "Dillman Services, Inc.",
      "prior": {
        "address": "Carmi, IL; exact street pending",
        "city": "Carmi",
        "state": "IL",
        "phone": "(618) 382-4720",
        "website": "https://dillmanservices.com/",
        "latitude": "38.090900",
        "longitude": "-88.158600"
      },
      "applied": {
        "address": "121 Council St",
        "city": "Carmi",
        "state": "IL",
        "phone": "(618) 382-4720",
        "website": "https://www.dillmanservices.com/",
        "latitude": "38.0981844",
        "longitude": "-88.1483667"
      },
      "source": "https://maps.google.com/?cid=4017113128657888401"
    },
    {
      "key": "DOG_Continental_US_Oilfield_Service_Provider_Map_V2_20_Corridor_Expansion.csv|58",
      "company": "Big Al's Machine, Inc.",
      "prior": {
        "address": "City-level; exact address pending",
        "city": "Enfield",
        "state": "IL",
        "phone": "618-963-2619",
        "website": "https://www.bigalsmachine.com/",
        "latitude": "38.099800",
        "longitude": "-88.340900"
      },
      "applied": {
        "address": "204 IL-14",
        "city": "Enfield",
        "state": "IL",
        "phone": "(618) 963-2619",
        "website": "http://www.bigalsmachine.com/",
        "latitude": "38.0830492",
        "longitude": "-88.3359425"
      },
      "source": "https://maps.google.com/?cid=3670512231489220751"
    },
    {
      "key": "DOG_Continental_US_Oilfield_Service_Provider_Map_V2_20_Corridor_Expansion.csv|59",
      "company": "Bradford Supply Company - Grayville",
      "prior": {
        "address": "Branch address to verify",
        "city": "Grayville",
        "state": "IL",
        "phone": "See company locations page / direct call",
        "website": "https://bradfordsupplycompany.com/",
        "latitude": "38.257300",
        "longitude": "-87.993100"
      },
      "applied": {
        "address": "1420 North Ct",
        "city": "Grayville",
        "state": "IL",
        "phone": "(618) 375-4441",
        "website": "https://bradfordsupplycompany.com/locations.php#grayville",
        "latitude": "38.27252590000001",
        "longitude": "-87.99437209999999"
      },
      "source": "https://maps.google.com/?cid=893146524757364198"
    },
    {
      "key": "DOG_Continental_US_Oilfield_Service_Provider_Map_V2_20_Corridor_Expansion.csv|78",
      "company": "Perf-Tech Wireline Services Inc.",
      "prior": {
        "address": "Exact address pending",
        "city": "Hays",
        "state": "KS",
        "phone": "785-628-1133",
        "website": "https://www.perftechwireline.com/",
        "latitude": "38.879200",
        "longitude": "-99.326800"
      },
      "applied": {
        "address": "1947 E 7th St",
        "city": "Hays",
        "state": "KS",
        "phone": "(785) 628-3969",
        "website": "http://perftechwireline.com/",
        "latitude": "38.8568504",
        "longitude": "-99.3004335"
      },
      "source": "https://maps.google.com/?cid=17754678325979898709"
    },
    {
      "key": "DOG_Continental_US_Oilfield_Service_Provider_Map_V2_20_Corridor_Expansion.csv|89",
      "company": "Murfin Drilling Company, Inc.",
      "prior": {
        "address": "250 N. Water, Suite 300",
        "city": "Wichita",
        "state": "KS",
        "phone": "316-267-3241",
        "website": "https://murfindrilling.com/",
        "latitude": "37.689500",
        "longitude": "-97.340600"
      },
      "applied": {
        "address": "250 N Water St #300",
        "city": "Wichita",
        "state": "KS",
        "phone": "(316) 267-3241",
        "website": "http://www.murfindrilling.com/",
        "latitude": "37.68944500000001",
        "longitude": "-97.339157"
      },
      "source": "https://maps.google.com/?cid=10888110211489406673"
    },
    {
      "key": "DOG_Continental_US_Oilfield_Service_Provider_Map_V2_20_Corridor_Expansion.csv|104",
      "company": "Envision Contractors, LLC",
      "prior": {
        "address": "2960 Fairview Drive",
        "city": "Owensboro",
        "state": "KY",
        "phone": "270-663-2304",
        "website": "https://envisionky.com/",
        "latitude": "37.771900",
        "longitude": "-87.111200"
      },
      "applied": {
        "address": "2960 Fairview Dr",
        "city": "Owensboro",
        "state": "KY",
        "phone": "(270) 663-2331",
        "website": "http://envisionky.com/",
        "latitude": "37.744305",
        "longitude": "-87.0595922"
      },
      "source": "https://maps.google.com/?cid=15735895199541299748"
    },
    {
      "key": "DOG_Continental_US_Oilfield_Service_Provider_Map_V2_20_Corridor_Expansion.csv|136",
      "company": "Kuva Systems",
      "prior": {
        "address": "1035 Cambridge St., Suite 10A",
        "city": "Cambridge",
        "state": "MA",
        "phone": "617-925-0480",
        "website": "https://www.kuvasystems.com/",
        "latitude": "42.373600",
        "longitude": "-71.109700"
      },
      "applied": {
        "address": "1035 Cambridge St",
        "city": "Cambridge",
        "state": "MA",
        "phone": "(617) 925-0480",
        "website": "http://www.kuvasystems.com/",
        "latitude": "42.3735601",
        "longitude": "-71.09351029999999"
      },
      "source": "https://maps.google.com/?cid=8132142402241454655"
    },
    {
      "key": "DOG_Continental_US_Oilfield_Service_Provider_Map_V2_20_Corridor_Expansion.csv|199",
      "company": "One AquaSource, Inc.",
      "prior": {
        "address": "Holland, OH; exact street pending",
        "city": "Holland",
        "state": "OH",
        "phone": "888-777-0000 range; verify",
        "website": "https://oneaquasource.com/",
        "latitude": "41.621700",
        "longitude": "-83.711600"
      },
      "applied": {
        "address": "6912 Spring Valley Dr #212",
        "city": "Holland",
        "state": "OH",
        "phone": "(419) 861-7010",
        "website": "https://oneaquasource.com/",
        "latitude": "41.6132316",
        "longitude": "-83.70662380000002"
      },
      "source": "https://maps.google.com/?cid=11389081437984994501"
    },
    {
      "key": "DOG_Continental_US_Oilfield_Service_Provider_Map_V2_20_Corridor_Expansion.csv|203",
      "company": "Computerized Mudlogging Service LLC",
      "prior": {
        "address": "830 Middletown Rd. E",
        "city": "North Lima",
        "state": "OH",
        "phone": "330-506-8073",
        "website": "https://computerizedmudlogging.com/",
        "latitude": "40.942000",
        "longitude": "-80.659000"
      },
      "applied": {
        "address": "830 Middletown Rd E",
        "city": "North Lima",
        "state": "OH",
        "phone": "(330) 506-8073",
        "website": "https://computerizedmudlogging.com/",
        "latitude": "40.9595377",
        "longitude": "-80.6360607"
      },
      "source": "https://maps.google.com/?cid=3231425010701901049"
    },
    {
      "key": "DOG_Continental_US_Oilfield_Service_Provider_Map_V2_20_Corridor_Expansion.csv|205",
      "company": "HAD, Inc.",
      "prior": {
        "address": "Regional / office in Ohio",
        "city": "Rittman",
        "state": "OH",
        "phone": "330-925-1000",
        "website": "https://hadinc.com/environmental-geotech-drilling.html",
        "latitude": "40.978100",
        "longitude": "-81.782100"
      },
      "applied": {
        "address": "9797 Benner Rd",
        "city": "Rittman",
        "state": "OH",
        "phone": "(330) 925-1000",
        "website": "http://www.hadinc.com/",
        "latitude": "40.9181901",
        "longitude": "-81.7807395"
      },
      "source": "https://maps.google.com/?cid=14923787510862191280"
    },
    {
      "key": "DOG_Continental_US_Oilfield_Service_Provider_Map_V2_20_Corridor_Expansion.csv|227",
      "company": "Kimray Inc.",
      "prior": {
        "address": "Corporate city-level",
        "city": "Oklahoma City",
        "state": "OK",
        "phone": "405-525-6601 / 405-525-4264",
        "website": "https://kimray.com/",
        "latitude": "35.467600",
        "longitude": "-97.516400"
      },
      "applied": {
        "address": "52 NW 42nd St",
        "city": "Oklahoma City",
        "state": "OK",
        "phone": "(405) 525-6601",
        "website": "http://kimray.com/",
        "latitude": "35.5131616",
        "longitude": "-97.51386459999999"
      },
      "source": "https://maps.google.com/?cid=18150849450703495175"
    },
    {
      "key": "DOG_Continental_US_Oilfield_Service_Provider_Map_V2_20_Corridor_Expansion.csv|231",
      "company": "Pinson Well Logging Inc.",
      "prior": {
        "address": "25 N Cooley Dr",
        "city": "Oklahoma City",
        "state": "OK",
        "phone": "405-604-5036",
        "website": "https://pinsonwelllogging.com/",
        "latitude": "35.467600",
        "longitude": "-97.624000"
      },
      "applied": {
        "address": "25 Cooley Dr",
        "city": "Oklahoma City",
        "state": "OK",
        "phone": "(405) 604-5036",
        "website": "https://pinsonwelllogging.com/",
        "latitude": "35.4671829",
        "longitude": "-97.68204809999999"
      },
      "source": "https://maps.google.com/?cid=15576740429457262390"
    },
    {
      "key": "DOG_Continental_US_Oilfield_Service_Provider_Map_V2_20_Corridor_Expansion.csv|248",
      "company": "Howell's Well Service, Inc.",
      "prior": {
        "address": "Exact address pending",
        "city": "Wynona",
        "state": "OK",
        "phone": "918-846-2531",
        "website": "https://oklahoma.gov/content/dam/ok/en/occ/documents/og/ogdatafiles/plugger-list.xlsx",
        "latitude": "36.546200",
        "longitude": "-96.328600"
      },
      "applied": {
        "address": "719 Antwine Ave",
        "city": "Wynona",
        "state": "OK",
        "phone": "(918) 846-2531",
        "website": "https://oklahoma.gov/content/dam/ok/en/occ/documents/og/ogdatafiles/plugger-list.xlsx",
        "latitude": "36.5438364",
        "longitude": "-96.32659609999999"
      },
      "source": "https://maps.google.com/?cid=16208431911435237090"
    },
    {
      "key": "DOG_Continental_US_Oilfield_Service_Provider_Map_V2_20_Corridor_Expansion.csv|254",
      "company": "Venture Energy Solutions",
      "prior": {
        "address": "1604 Ashwood Drive",
        "city": "Canonsburg",
        "state": "PA",
        "phone": "724-416-3371",
        "website": "https://ventureenergysolutions.com/petroleum-engineering/",
        "latitude": "40.261200",
        "longitude": "-80.187300"
      },
      "applied": {
        "address": "1603 Ashwood Dr",
        "city": "Canonsburg",
        "state": "PA",
        "phone": "(800) 460-5968",
        "website": "http://www.venture-energy.com/",
        "latitude": "40.2550197",
        "longitude": "-80.1654712"
      },
      "source": "https://maps.google.com/?cid=14646022865102670480"
    },
    {
      "key": "DOG_Continental_US_Oilfield_Service_Provider_Map_V2_20_Corridor_Expansion.csv|256",
      "company": "Falcon Drilling, LLC",
      "prior": {
        "address": "102 Broadway Street, Suite 300",
        "city": "Carnegie",
        "state": "PA",
        "phone": "412-505-8135",
        "website": "https://www.falcondrilling.com/",
        "latitude": "40.408700",
        "longitude": "-80.083400"
      },
      "applied": {
        "address": "102 Broadway St",
        "city": "Carnegie",
        "state": "PA",
        "phone": "(412) 505-8135",
        "website": "http://www.falcondrilling.com/contact-falcon-drilling/",
        "latitude": "40.4094104",
        "longitude": "-80.0871864"
      },
      "source": "https://maps.google.com/?cid=13992843337465444626"
    },
    {
      "key": "DOG_Continental_US_Oilfield_Service_Provider_Map_V2_20_Corridor_Expansion.csv|266",
      "company": "DTA, L.P.",
      "prior": {
        "address": "2045 / Kennerdell-area location needs exact confirmation",
        "city": "Kennerdell",
        "state": "PA",
        "phone": "724-352-3104",
        "website": "https://www.dtalp.com/oil-and-gas/",
        "latitude": "41.266200",
        "longitude": "-79.823700"
      },
      "applied": {
        "address": "2045 Lisbon Rd",
        "city": "Kennerdell",
        "state": "PA",
        "phone": "(814) 385-6967",
        "website": "http://www.dtalp.com/",
        "latitude": "41.2651634",
        "longitude": "-79.81064599999999"
      },
      "source": "https://maps.google.com/?cid=7855845178236654731"
    },
    {
      "key": "DOG_Continental_US_Oilfield_Service_Provider_Map_V2_20_Corridor_Expansion.csv|280",
      "company": "West Penn Energy Services",
      "prior": {
        "address": "865 State Route 210",
        "city": "Shelocta",
        "state": "PA",
        "phone": "724-354-4118",
        "website": "https://wpes-pa.com/",
        "latitude": "40.656700",
        "longitude": "-79.302000"
      },
      "applied": {
        "address": "865 PA-210",
        "city": "Shelocta",
        "state": "PA",
        "phone": "(724) 354-4118",
        "website": "http://www.wpes-pa.com/",
        "latitude": "40.68958070000001",
        "longitude": "-79.3388666"
      },
      "source": "https://maps.google.com/?cid=14914753874106770096"
    },
    {
      "key": "DOG_Continental_US_Oilfield_Service_Provider_Map_V2_20_Corridor_Expansion.csv|282",
      "company": "Keystone Drill Services",
      "prior": {
        "address": "184 Alisa Street",
        "city": "Somerset",
        "state": "PA",
        "phone": "800-221-0586",
        "website": "https://www.keystonedrill.com/",
        "latitude": "40.008400",
        "longitude": "-79.078100"
      },
      "applied": {
        "address": "184 Alisa St",
        "city": "Somerset",
        "state": "PA",
        "phone": "(814) 443-2670",
        "website": "https://www.keystonedrill.com/",
        "latitude": "40.0317409",
        "longitude": "-79.084808"
      },
      "source": "https://maps.google.com/?cid=403246005190205544"
    },
    {
      "key": "DOG_Continental_US_Oilfield_Service_Provider_Map_V2_20_Corridor_Expansion.csv|285",
      "company": "Producers Supply Company",
      "prior": {
        "address": "121 Kiwi Drive",
        "city": "Waynesburg",
        "state": "PA",
        "phone": "724-627-6800",
        "website": "https://p-s-c.com/",
        "latitude": "39.896500",
        "longitude": "-80.187300"
      },
      "applied": {
        "address": "121 Kiwi Rd",
        "city": "Waynesburg",
        "state": "PA",
        "phone": "(724) 627-6800",
        "website": "https://www.p-s-c.com/",
        "latitude": "39.8981191",
        "longitude": "-80.1319334"
      },
      "source": "https://maps.google.com/?cid=12209271199434633847"
    },
    {
      "key": "DOG_Continental_US_Oilfield_Service_Provider_Map_V2_20_Corridor_Expansion.csv|287",
      "company": "Toy Pipeline Contractors, Inc.",
      "prior": {
        "address": "870 Claypoole Road",
        "city": "Worthington",
        "state": "PA",
        "phone": "724-297-3464",
        "website": "https://www.toypci.com",
        "latitude": "40.837000",
        "longitude": "-79.631100"
      },
      "applied": {
        "address": "870 Claypoole Rd",
        "city": "Worthington",
        "state": "PA",
        "phone": "(724) 297-3464",
        "website": "https://www.toypci.com/",
        "latitude": "40.8337349",
        "longitude": "-79.62377710000001"
      },
      "source": "https://maps.google.com/?cid=9640172663519666270"
    },
    {
      "key": "DOG_Continental_US_Oilfield_Service_Provider_Map_V2_20_Corridor_Expansion.csv|294",
      "company": "Wright & Company, Inc.",
      "prior": {
        "address": "Middle Tennessee regional office",
        "city": "Brentwood",
        "state": "TN",
        "phone": "Needs direct call",
        "website": "https://wrightandcompany.com/",
        "latitude": "36.033100",
        "longitude": "-86.782800"
      },
      "applied": {
        "address": "12 Cadillac Dr Unit 260",
        "city": "Brentwood",
        "state": "TN",
        "phone": "(615) 370-0755",
        "website": "http://wrightandcompany.com/",
        "latitude": "36.0349621",
        "longitude": "-86.79906799999999"
      },
      "source": "https://maps.google.com/?cid=17785852865976939469"
    },
    {
      "key": "DOG_Continental_US_Oilfield_Service_Provider_Map_V2_20_Corridor_Expansion.csv|308",
      "company": "ProDirectional",
      "prior": {
        "address": "850 Conroe Park West Dr.",
        "city": "Conroe",
        "state": "TX",
        "phone": "936-441-7266",
        "website": "https://prodirectional.com/",
        "latitude": "30.351800",
        "longitude": "-95.448600"
      },
      "applied": {
        "address": "850 Conroe Park W Dr",
        "city": "Conroe",
        "state": "TX",
        "phone": "(936) 441-7266",
        "website": "https://www.prodirectional.com/",
        "latitude": "30.3689763",
        "longitude": "-95.45752089999999"
      },
      "source": "https://maps.google.com/?cid=15060470815292923544"
    },
    {
      "key": "DOG_Continental_US_Oilfield_Service_Provider_Map_V2_20_Corridor_Expansion.csv|327",
      "company": "Core Laboratories",
      "prior": {
        "address": "Houston-area headquarters / lab network",
        "city": "Houston",
        "state": "TX",
        "phone": "Needs direct call",
        "website": "https://www.corelab.com/",
        "latitude": "29.760400",
        "longitude": "-95.369800"
      },
      "applied": {
        "address": "6316 Windfern Rd",
        "city": "Houston",
        "state": "TX",
        "phone": "(713) 328-2673",
        "website": "http://www.corelab.com/",
        "latitude": "29.8607677",
        "longitude": "-95.536684"
      },
      "source": "https://maps.google.com/?cid=14946341400739136688"
    },
    {
      "key": "DOG_Continental_US_Oilfield_Service_Provider_Map_V2_20_Corridor_Expansion.csv|346",
      "company": "Heath Consultants",
      "prior": {
        "address": "9030 Monroe Rd",
        "city": "Houston",
        "state": "TX",
        "phone": "713-844-1300",
        "website": "https://heathus.com/",
        "latitude": "29.644500",
        "longitude": "-95.266700"
      },
      "applied": {
        "address": "9030 Monroe Rd",
        "city": "Houston",
        "state": "TX",
        "phone": "(713) 844-1300",
        "website": "http://heathus.com/",
        "latitude": "29.6377223",
        "longitude": "-95.26508609999999"
      },
      "source": "https://maps.google.com/?cid=10628727977402211333"
    },
    {
      "key": "DOG_Continental_US_Oilfield_Service_Provider_Map_V2_20_Corridor_Expansion.csv|400",
      "company": "Wild Well Control",
      "prior": {
        "address": "2202 Oil Center Court",
        "city": "Houston",
        "state": "TX",
        "phone": "+1 281-784-4700",
        "website": "https://www.wildwell.com/",
        "latitude": "29.942600",
        "longitude": "-95.410000"
      },
      "applied": {
        "address": "2202 Oil Center Ct",
        "city": "Houston",
        "state": "TX",
        "phone": "(281) 784-4700",
        "website": "http://www.wildwell.com/",
        "latitude": "29.9988842",
        "longitude": "-95.39308919999999"
      },
      "source": "https://maps.google.com/?cid=7814352923892440970"
    },
    {
      "key": "DOG_Continental_US_Oilfield_Service_Provider_Map_V2_20_Corridor_Expansion.csv|405",
      "company": "Varel Energy Solutions",
      "prior": {
        "address": "Kingwood/Houston area; exact address pending",
        "city": "Kingwood",
        "state": "TX",
        "phone": "+1 972 995 2700",
        "website": "https://www.varel.com/",
        "latitude": "30.050000",
        "longitude": "-95.184000"
      },
      "applied": {
        "address": "22001 Northpark Dr Ste 100",
        "city": "Kingwood",
        "state": "TX",
        "phone": "(281) 272-6000",
        "website": "http://www.varel.com/",
        "latitude": "30.0668777",
        "longitude": "-95.25603799999999"
      },
      "source": "https://maps.google.com/?cid=7300200698747831034"
    },
    {
      "key": "DOG_Continental_US_Oilfield_Service_Provider_Map_V2_20_Corridor_Expansion.csv|406",
      "company": "Renegade Wireline Services",
      "prior": {
        "address": "Corporate / branch extraction pending",
        "city": "Levelland",
        "state": "TX",
        "phone": "806-894-6008",
        "website": "https://renegadewls.com/",
        "latitude": "33.587300",
        "longitude": "-102.377900"
      },
      "applied": {
        "address": "1937 West Ave",
        "city": "Levelland",
        "state": "TX",
        "phone": "(806) 568-0042",
        "website": "https://renegadewls.com/levelland-tx/?utm_source=GMB+Levelland+Texas&utm_medium=organic",
        "latitude": "33.5631129",
        "longitude": "-102.3868915"
      },
      "source": "https://maps.google.com/?cid=14494887802843426958"
    },
    {
      "key": "DOG_Continental_US_Oilfield_Service_Provider_Map_V2_20_Corridor_Expansion.csv|411",
      "company": "BlackFox Oil Tools",
      "prior": {
        "address": "",
        "city": "Midland",
        "state": "TX",
        "phone": "432-686-2693",
        "website": "https://www.blackfoxoiltools.com/",
        "latitude": "31.997300",
        "longitude": "-102.077900"
      },
      "applied": {
        "address": "3008 Elkins Rd",
        "city": "Midland",
        "state": "TX",
        "phone": "(432) 686-2683",
        "website": "http://blackfoxoiltools.com/",
        "latitude": "32.0407579",
        "longitude": "-102.0239763"
      },
      "source": "https://maps.google.com/?cid=16265368918790032924"
    },
    {
      "key": "DOG_Continental_US_Oilfield_Service_Provider_Map_V2_20_Corridor_Expansion.csv|420",
      "company": "Quality Logging Inc.",
      "prior": {
        "address": "1800 Dayton Rd",
        "city": "Midland",
        "state": "TX",
        "phone": "432-894-0707",
        "website": "https://www.qualitylogging.com/",
        "latitude": "31.997300",
        "longitude": "-102.077900"
      },
      "applied": {
        "address": "1800 Dayton Rd",
        "city": "Midland",
        "state": "TX",
        "phone": "(432) 682-7168",
        "website": "https://www.qualitylogging.com/",
        "latitude": "31.967535",
        "longitude": "-102.0806745"
      },
      "source": "https://maps.google.com/?cid=12232911917120426097"
    },
    {
      "key": "DOG_Continental_US_Oilfield_Service_Provider_Map_V2_20_Corridor_Expansion.csv|439",
      "company": "Riley Geological Consultants, Inc.",
      "prior": {
        "address": "12208 County Road 3100",
        "city": "Slaton",
        "state": "TX",
        "phone": "806-828-5120",
        "website": "https://rileygeo.com/",
        "latitude": "33.437300",
        "longitude": "-101.642700"
      },
      "applied": {
        "address": "12208 Co Rd 3100 #1",
        "city": "Slaton",
        "state": "TX",
        "phone": "(806) 828-5120",
        "website": "http://www.rileygeo.com/",
        "latitude": "33.4839096",
        "longitude": "-101.7111892"
      },
      "source": "https://maps.google.com/?cid=1989132660794483367"
    },
    {
      "key": "DOG_Continental_US_Oilfield_Service_Provider_Map_V2_20_Corridor_Expansion.csv|450",
      "company": "Scientific Drilling International",
      "prior": {
        "address": "1450 Lake Robbins Dr, Suite 200",
        "city": "The Woodlands",
        "state": "TX",
        "phone": "Needs direct call",
        "website": "https://scientificdrilling.com/technology-services/cased-hole-services/",
        "latitude": "30.164000",
        "longitude": "-95.459700"
      },
      "applied": {
        "address": "1450 Lake Robbins Dr #200",
        "city": "The Woodlands",
        "state": "TX",
        "phone": "(281) 443-3300",
        "website": "https://scientificdrilling.com/",
        "latitude": "30.161871",
        "longitude": "-95.45611720000001"
      },
      "source": "https://maps.google.com/?cid=8379950738079057338"
    },
    {
      "key": "DOG_Continental_US_Oilfield_Service_Provider_Map_V2_20_Corridor_Expansion.csv|457",
      "company": "Marshall Miller & Associates",
      "prior": {
        "address": "Primary office / regional consulting",
        "city": "Bluefield",
        "state": "VA",
        "phone": "276-322-5467",
        "website": "https://mma1.com/",
        "latitude": "37.252600",
        "longitude": "-81.271200"
      },
      "applied": {
        "address": "582 Industrial Park Rd",
        "city": "Bluefield",
        "state": "VA",
        "phone": "(276) 322-5467",
        "website": "http://www.mma1.com/",
        "latitude": "37.2358465",
        "longitude": "-81.2992508"
      },
      "source": "https://maps.google.com/?cid=11029567167855123358"
    },
    {
      "key": "DOG_Continental_US_Oilfield_Service_Provider_Map_V2_20_Corridor_Expansion.csv|462",
      "company": "Gas Field Services",
      "prior": {
        "address": "17908 US Hwy 19",
        "city": "Rosedale",
        "state": "VA",
        "phone": "276-880-2323",
        "website": "https://www.gasfieldsvc.com/",
        "latitude": "36.972300",
        "longitude": "-81.932300"
      },
      "applied": {
        "address": "17908 US-19",
        "city": "Rosedale",
        "state": "VA",
        "phone": "(276) 880-2323",
        "website": "https://www.gasfieldsvc.com/",
        "latitude": "36.95537729999999",
        "longitude": "-81.94127"
      },
      "source": "https://maps.google.com/?cid=3259580052106332907"
    },
    {
      "key": "DOG_Continental_US_Oilfield_Service_Provider_Map_V2_20_Corridor_Expansion.csv|466",
      "company": "E&H Manufacturing",
      "prior": {
        "address": "City-level; exact address pending",
        "city": "Charleston",
        "state": "WV",
        "phone": "304-344-9875",
        "website": "https://eandhmanufacturing.com/",
        "latitude": "38.349800",
        "longitude": "-81.632600"
      },
      "applied": {
        "address": "2722 Pennsylvania Ave",
        "city": "Charleston",
        "state": "WV",
        "phone": "(304) 344-9875",
        "website": "https://eandhmanufacturing.com/",
        "latitude": "38.3907573",
        "longitude": "-81.59236349999999"
      },
      "source": "https://maps.google.com/?cid=2279046361149577590"
    },
    {
      "key": "DOG_Continental_US_Oilfield_Service_Provider_Map_V2_20_Corridor_Expansion.csv|470",
      "company": "Hall Drilling LLC",
      "prior": {
        "address": "1137 East Washington Avenue",
        "city": "Ellenboro",
        "state": "WV",
        "phone": "304-869-3404",
        "website": "https://halldrilling.com",
        "latitude": "39.266700",
        "longitude": "-81.055900"
      },
      "applied": {
        "address": "1137 E Washington Ave",
        "city": "Ellenboro",
        "state": "WV",
        "phone": "(304) 869-3404",
        "website": "https://www.halldrilling.com/",
        "latitude": "39.2768823",
        "longitude": "-81.0430476"
      },
      "source": "https://maps.google.com/?cid=16212479060720547800"
    },
    {
      "key": "DOG_Continental_US_Oilfield_Service_Provider_Map_V2_20_Corridor_Expansion.csv|504",
      "company": "Goodwell Inc.",
      "prior": {
        "address": "",
        "city": "Gillette",
        "state": "WY",
        "phone": "307-685-6493",
        "website": "http://goodwellinc.com",
        "latitude": "44.291100",
        "longitude": "-105.502200"
      },
      "applied": {
        "address": "1319 Energy St",
        "city": "Gillette",
        "state": "WY",
        "phone": "(307) 685-6493",
        "website": "http://goodwellinc.com/",
        "latitude": "44.29797019999999",
        "longitude": "-105.4815027"
      },
      "source": "https://maps.google.com/?cid=7560398590631067293"
    },
    {
      "key": "DOG_Continental_US_Oilfield_Service_Provider_Map_V2_20_Corridor_Expansion.csv|507",
      "company": "Mountain Mud Service & Supply",
      "prior": {
        "address": "",
        "city": "Gillette",
        "state": "WY",
        "phone": "307-682-8688",
        "website": "http://mtnmud.com",
        "latitude": "44.291100",
        "longitude": "-105.502200"
      },
      "applied": {
        "address": "1301 Lincoln St",
        "city": "Gillette",
        "state": "WY",
        "phone": "(307) 682-8688",
        "website": "https://mtnmud.com/",
        "latitude": "44.2954924",
        "longitude": "-105.481257"
      },
      "source": "https://maps.google.com/?cid=14232479211283065879"
    },
    {
      "key": "DOG_Continental_US_Oilfield_Service_Provider_Map_V2_20_Corridor_Expansion.csv|123",
      "company": "Oilfield Innovators Limited, LLC",
      "prior": {
        "address": "3909 Ambassador Caffery Pkwy., Suite C",
        "city": "Lafayette",
        "state": "LA",
        "phone": "337-233-8201; 337-233-8472",
        "website": "www.oilfieldltd.com",
        "latitude": "30.183500",
        "longitude": "-92.079800"
      },
      "applied": {
        "address": "1232 Camellia Blvd Ste c",
        "city": "Lafayette",
        "state": "LA",
        "phone": "(337) 233-8201",
        "website": "http://oilfieldltd.com/",
        "latitude": "30.1708565",
        "longitude": "-92.0400136"
      },
      "source": "https://maps.google.com/?cid=690392854622049807"
    },
    {
      "key": "DOG_Continental_US_Oilfield_Service_Provider_Map_V2_20_Corridor_Expansion.csv|139",
      "company": "Eagle Exploration, Inc.",
      "prior": {
        "address": "12935 S W Bayshore Drive, Suite 310",
        "city": "Traverse City",
        "state": "MI",
        "phone": "800-473-0420; 877-218-7292",
        "website": "www.eagleexplorationservices.com",
        "latitude": "44.763100",
        "longitude": "-85.620600"
      },
      "applied": {
        "address": "12935 S W Bay Shore Dr Ste 355B",
        "city": "Traverse City",
        "state": "MI",
        "phone": "(231) 933-6177",
        "website": "www.eagleexplorationservices.com",
        "latitude": "44.7908993",
        "longitude": "-85.63686299999999"
      },
      "source": "https://maps.google.com/?cid=17269686731824382490"
    },
    {
      "key": "DOG_Continental_US_Oilfield_Service_Provider_Map_V2_20_Corridor_Expansion.csv|373",
      "company": "Process Solutions International",
      "prior": {
        "address": "7519 Prairie Oak Drive",
        "city": "Houston",
        "state": "TX",
        "phone": "281-893-4774; 281-893-1027",
        "website": "www.psimax2000.com",
        "latitude": "29.928000",
        "longitude": "-95.523500"
      },
      "applied": {
        "address": "7519 Prairie Oak Dr",
        "city": "Houston",
        "state": "TX",
        "phone": "(281) 893-4774",
        "website": "https://psimax2000.com/",
        "latitude": "29.9300693",
        "longitude": "-95.49926049999999"
      },
      "source": "https://maps.google.com/?cid=7281292761000817546"
    },
    {
      "key": "DOG_Continental_US_Oilfield_Service_Provider_Map_V2_20_Corridor_Expansion.csv|263",
      "company": "Franklin Well Services, LLC",
      "prior": {
        "address": "400 Main St",
        "city": "Vincennes",
        "state": "IN",
        "phone": "Office 812-494-2800; 24/7 Dispatch 877-943-4680",
        "website": "https://franklinwell.com/",
        "latitude": "38.678299",
        "longitude": "-87.522491"
      },
      "applied": {
        "address": "400 Main St",
        "city": "Vincennes",
        "state": "IN",
        "phone": "(812) 494-2800",
        "website": "http://www.franklinwell.com/",
        "latitude": "38.6783209",
        "longitude": "-87.53044299999999"
      },
      "source": "https://maps.google.com/?cid=2722302928866575256"
    }
  ],
  "held": [
    {
      "key": "DOG_Continental_US_Oilfield_Service_Provider_Map_V2_20_Corridor_Expansion.csv|6",
      "company": "Hoover Compliance",
      "suggestedName": "Hoover & Company",
      "suggestedAddress": "1501 N Pierce St Ste 107, Little Rock, AR 72207, USA",
      "businessStatus": "OPERATIONAL",
      "matchScore": 100,
      "reason": "Identity, branch, or location match requires manual corroboration"
    },
    {
      "key": "DOG_Continental_US_Oilfield_Service_Provider_Map_V2_20_Corridor_Expansion.csv|88",
      "company": "Mid-West Power Tongs",
      "suggestedName": "GT Midwest",
      "suggestedAddress": "2202 S West St, Wichita, KS 67213, USA",
      "businessStatus": "OPERATIONAL",
      "matchScore": 18,
      "reason": "Identity, branch, or location match requires manual corroboration"
    },
    {
      "key": "DOG_Continental_US_Oilfield_Service_Provider_Map_V2_20_Corridor_Expansion.csv|102",
      "company": "West Kentucky Well Surveys",
      "suggestedName": "Branson Surveys, Inc.",
      "suggestedAddress": "330 2nd St, Henderson, KY 42420, USA",
      "businessStatus": "OPERATIONAL",
      "matchScore": 18,
      "reason": "Identity, branch, or location match requires manual corroboration"
    },
    {
      "key": "DOG_Continental_US_Oilfield_Service_Provider_Map_V2_20_Corridor_Expansion.csv|126",
      "company": "Thomas Tools",
      "suggestedName": "Thomas Tools",
      "suggestedAddress": "3307 W Admiral Doyle Dr, New Iberia, LA 70560, USA",
      "businessStatus": "OPERATIONAL",
      "matchScore": 108,
      "reason": "Identity, branch, or location match requires manual corroboration"
    },
    {
      "key": "DOG_Continental_US_Oilfield_Service_Provider_Map_V2_20_Corridor_Expansion.csv|187",
      "company": "Energy Fishing and Rental Services",
      "suggestedName": "Key Fishing & Rental",
      "suggestedAddress": "6120 N Lovington Hwy, Hobbs, NM 88240, USA",
      "businessStatus": "OPERATIONAL",
      "matchScore": 18,
      "reason": "Identity, branch, or location match requires manual corroboration"
    },
    {
      "key": "DOG_Continental_US_Oilfield_Service_Provider_Map_V2_20_Corridor_Expansion.csv|223",
      "company": "Friend Bit Service",
      "suggestedName": "Drill Bit Service LLC",
      "suggestedAddress": "2504 S Purdue Ave, Oklahoma City, OK 73128, USA",
      "businessStatus": "OPERATIONAL",
      "matchScore": 18,
      "reason": "Identity, branch, or location match requires manual corroboration"
    },
    {
      "key": "DOG_Continental_US_Oilfield_Service_Provider_Map_V2_20_Corridor_Expansion.csv|224",
      "company": "Greasebook",
      "suggestedName": "Brooks Grease Services",
      "suggestedAddress": "3131 S Byers Ave, Oklahoma City, OK 73129, USA",
      "businessStatus": "OPERATIONAL",
      "matchScore": 18,
      "reason": "Identity, branch, or location match requires manual corroboration"
    },